[
  {
    "id": 0,
    "city": "西昌市",
    "lon": 102.2630581396,
    "lat": 27.8944681029
  },
  {
    "id": 1,
    "city": "冕宁县",
    "lon": 102.174886,
    "lat": 28.551094
  },
  {
    "id": 2,
    "city": "普格县",
    "lon": 102.543660464,
    "lat": 27.3566383853
  },
  {
    "id": 3,
    "city": "会东县",
    "lon": 102.5609530841,
    "lat": 26.6313145856
  },
  {
    "id": 4,
    "city": "会理县",
    "lon": 102.2436961313,
    "lat": 26.6494669967
  },
  {
    "id": 5,
    "city": "宁南县",
    "lon": 102.75645411,
    "lat": 27.0602728448
  },
  {
    "id": 6,
    "city": "德昌县",
    "lon": 102.1722489983,
    "lat": 27.3956078254
  },
  {
    "id": 7,
    "city": "布拖县",
    "lon": 102.8162678222,
    "lat": 27.7027709948
  },
  {
    "id": 8,
    "city": "金阳县",
    "lon": 103.250825051,
    "lat": 27.6887503194
  },
  {
    "id": 9,
    "city": "盐源县",
    "lon": 101.5092069885,
    "lat": 27.422398631
  },
  {
    "id": 10,
    "city": "喜德县",
    "lon": 102.4171963327,
    "lat": 28.2990837602
  },
  {
    "id": 11,
    "city": "美姑县",
    "lon": 103.1392700772,
    "lat": 28.3174257078
  },
  {
    "id": 12,
    "city": "越西县",
    "lon": 102.5298770661,
    "lat": 28.6343881533
  },
  {
    "id": 13,
    "city": "甘洛县",
    "lon": 102.7804952461,
    "lat": 28.9564985257
  },
  {
    "id": 14,
    "city": "木里藏族自治县",
    "lon": 101.2796769332,
    "lat": 27.9294464591
  },
  {
    "id": 15,
    "city": "昭觉县",
    "lon": 102.8496457332,
    "lat": 28.0029962408
  },
  {
    "id": 16,
    "city": "雷波县",
    "lon": 103.5715033785,
    "lat": 28.262733149
  }
]
